[{"station":209,"lon":4.518,"lat":52.465,"alt":0.0,"name":"IJmond","province":"Noord-Holland","province_code":"PV27"},{"station":210,"lon":4.43,"lat":52.171,"alt":-0.2,"name":"Valkenburg","province":"Zuid-Holland","province_code":"PV28"},{"station":215,"lon":4.437,"lat":52.141,"alt":-1.1,"name":"Voorschoten","province":"Zuid-Holland","province_code":"PV28"},{"station":225,"lon":4.555,"lat":52.463,"alt":4.4,"name":"IJmuiden","province":"Noord-Holland","province_code":"PV27"},{"station":235,"lon":4.781,"lat":52.928,"alt":1.2,"name":"De Kooy","province":"Noord-Holland","province_code":"PV27"},{"station":240,"lon":4.79,"lat":52.318,"alt":-3.3,"name":"Schiphol","province":"Noord-Holland","province_code":"PV27"},{"station":242,"lon":4.921,"lat":53.241,"alt":10.8,"name":"Vlieland","province":"Friesland","province_code":"PV21"},{"station":248,"lon":5.174,"lat":52.634,"alt":0.8,"name":"Wijdenes","province":"Noord-Holland","province_code":"PV27"},{"station":249,"lon":4.979,"lat":52.644,"alt":-2.4,"name":"Berkhout","province":"Noord-Holland","province_code":"PV27"},{"station":251,"lon":5.346,"lat":53.392,"alt":0.7,"name":"Hoorn (Terschelling)","province":"Friesland","province_code":"PV21"},{"station":257,"lon":4.603,"lat":52.506,"alt":8.5,"name":"Wijk aan Zee","province":"Noord-Holland","province_code":"PV27"},{"station":258,"lon":5.401,"lat":52.649,"alt":7.3,"name":"Houtribdijk","province":"Flevoland","province_code":"PV24"},{"station":260,"lon":5.18,"lat":52.1,"alt":1.9,"name":"De Bilt","province":"Utrecht","province_code":"PV26"},{"station":265,"lon":5.274,"lat":52.13,"alt":13.9,"name":"Soesterberg","province":"Utrecht","province_code":"PV26"},{"station":267,"lon":5.384,"lat":52.898,"alt":-1.3,"name":"Stavoren","province":"Friesland","province_code":"PV21"},{"station":269,"lon":5.52,"lat":52.458,"alt":-3.7,"name":"Lelystad","province":"Flevoland","province_code":"PV24"},{"station":270,"lon":5.752,"lat":53.224,"alt":1.2,"name":"Leeuwarden","province":"Friesland","province_code":"PV21"},{"station":273,"lon":5.888,"lat":52.703,"alt":-3.3,"name":"Marknesse","province":"Flevoland","province_code":"PV24"},{"station":275,"lon":5.873,"lat":52.056,"alt":48.2,"name":"Deelen","province":"Gelderland","province_code":"PV25"},{"station":277,"lon":6.2,"lat":53.413,"alt":2.9,"name":"Lauwersoog","province":"Groningen","province_code":"PV20"},{"station":278,"lon":6.259,"lat":52.435,"alt":3.6,"name":"Heino","province":"Overijssel","province_code":"PV23"},{"station":279,"lon":6.574,"lat":52.75,"alt":15.8,"name":"Hoogeveen","province":"Drenthe","province_code":"PV22"},{"station":280,"lon":6.585,"lat":53.125,"alt":5.2,"name":"Eelde","province":"Drenthe","province_code":"PV22"},{"station":283,"lon":6.657,"lat":52.069,"alt":29.1,"name":"Hupsel","province":"Gelderland","province_code":"PV25"},{"station":285,"lon":6.399,"lat":53.575,"alt":0.0,"name":"Huibertgat","province":"Groningen","province_code":"PV20"},{"station":286,"lon":7.15,"lat":53.196,"alt":-0.2,"name":"Nieuw Beerta","province":"Groningen","province_code":"PV20"},{"station":290,"lon":6.891,"lat":52.274,"alt":34.8,"name":"Twenthe","province":"Overijssel","province_code":"PV23"},{"station":308,"lon":3.379,"lat":51.381,"alt":0.0,"name":"Cadzand","province":"Zeeland","province_code":"PV29"},{"station":310,"lon":3.596,"lat":51.442,"alt":8.0,"name":"Vlissingen","province":"Zeeland","province_code":"PV29"},{"station":311,"lon":3.672,"lat":51.379,"alt":0.0,"name":"Hoofdplaat","province":"Zeeland","province_code":"PV29"},{"station":312,"lon":3.622,"lat":51.768,"alt":0.0,"name":"Oosterschelde","province":"Zeeland","province_code":"PV29"},{"station":313,"lon":3.242,"lat":51.505,"alt":0.0,"name":"Vlakte v/d Raan","province":"Zeeland","province_code":"PV29"},{"station":315,"lon":3.998,"lat":51.447,"alt":0.0,"name":"Hansweert","province":"Zeeland","province_code":"PV29"},{"station":316,"lon":3.694,"lat":51.657,"alt":0.0,"name":"Schaar","province":"Zeeland","province_code":"PV29"},{"station":319,"lon":3.861,"lat":51.226,"alt":1.7,"name":"Westdorpe","province":"Zeeland","province_code":"PV29"},{"station":323,"lon":3.884,"lat":51.527,"alt":1.4,"name":"Wilhelminadorp","province":"Zeeland","province_code":"PV29"},{"station":324,"lon":4.006,"lat":51.596,"alt":0.0,"name":"Stavenisse","province":"Zeeland","province_code":"PV29"},{"station":330,"lon":4.122,"lat":51.992,"alt":11.9,"name":"Hoek van Holland","province":"Zuid-Holland","province_code":"PV28"},{"station":331,"lon":4.193,"lat":51.48,"alt":0.0,"name":"Tholen","province":"Zeeland","province_code":"PV29"},{"station":340,"lon":4.342,"lat":51.449,"alt":19.2,"name":"Woensdrecht","province":"Noord-Brabant","province_code":"PV30"},{"station":343,"lon":4.313,"lat":51.893,"alt":3.5,"name":"R'Dam-Geulhaven","province":"Zuid-Holland","province_code":"PV28"},{"station":344,"lon":4.447,"lat":51.962,"alt":-4.3,"name":"Rotterdam","province":"Zuid-Holland","province_code":"PV28"},{"station":348,"lon":4.926,"lat":51.97,"alt":-0.7,"name":"Cabauw","province":"Utrecht","province_code":"PV26"},{"station":350,"lon":4.936,"lat":51.566,"alt":14.9,"name":"Gilze-Rijen","province":"Noord-Brabant","province_code":"PV30"},{"station":356,"lon":5.146,"lat":51.859,"alt":0.7,"name":"Herwijnen","province":"Gelderland","province_code":"PV25"},{"station":370,"lon":5.377,"lat":51.451,"alt":22.6,"name":"Eindhoven","province":"Noord-Brabant","province_code":"PV30"},{"station":375,"lon":5.707,"lat":51.659,"alt":22.0,"name":"Volkel","province":"Noord-Brabant","province_code":"PV30"},{"station":377,"lon":5.763,"lat":51.198,"alt":30.0,"name":"Ell","province":"Limburg","province_code":"PV31"},{"station":380,"lon":5.762,"lat":50.906,"alt":114.3,"name":"Maastricht","province":"Limburg","province_code":"PV31"},{"station":391,"lon":6.197,"lat":51.498,"alt":19.5,"name":"Arcen","province":"Limburg","province_code":"PV31"}]